{"id":1,"mac_drone":99990001,"name":"Quack Supremo","height_cm":95,"weight_g":3.8,"location":{"city":"São Paulo","country":"Brasil","latitude":-23.5505,"longitude":-46.6333,"precision":10,"refer":"Área de Teste A"},"status":"Desperto","bpm":120,"mutations_quantity":5,"super_poder":{"name":"Voar Supersônico","description":"Atinge Mach 5 por 10 segundos.","class":"Ataque Rápido"}}
{"id":2,"mac_drone":99990002,"name":"Transeador","height_cm":100,"weight_g":4.5,"location":{"city":"Curitiba","country":"Brasil","latitude":-25.4326,"longitude":-49.2731,"precision":10,"refer":"Área de Teste B"},"status":"Em transe","bpm":75,"mutations_quantity":0,"super_poder":null}
{"id":3,"mac_drone":99990003,"name":"Dorminhoco","height_cm":110,"weight_g":5.0,"location":{"city":"Manaus","country":"Brasil","latitude":-3.119,"longitude":-60.0217,"precision":10,"refer":"Área de Teste C"},"status":"Hibernação profunda","bpm":30,"mutations_quantity":0,"super_poder":null}
{"id":4,"mac_drone":99990004,"name":"Rápido Patinho","height_cm":98,"weight_g":4.2,"location":{"city":"Rio de Janeiro","country":"Brasil","latitude":-22.9068,"longitude":-43.1729,"precision":10,"refer":"Área de Teste D"},"status":"Desperto","bpm":110,"mutations_quantity":2,"super_poder":{"name":"Super Velocidade","description":"Corre a 200km/h por 5 segundos.","class":"Ataque Rápido"}}
{"id":5,"mac_drone":99990005,"name":"Místico","height_cm":102,"weight_g":4.7,"location":{"city":"Porto Alegre","country":"Brasil","latitude":-30.0277,"longitude":-51.2287,"precision":10,"refer":"Área de Teste E"},"status":"Em transe","bpm":65,"mutations_quantity":1,"super_poder":null}
{"id":6,"mac_drone":99990006,"name":"Mutante X","height_cm":120,"weight_g":6.0,"location":{"city":"Belo Horizonte","country":"Brasil","latitude":-19.9208,"longitude":-43.9378,"precision":10,"refer":"Área de Teste F"},"status":"Desperto","bpm":95,"mutations_quantity":6,"super_poder":{"name":"Força Bruta","description":"Pode esmagar rochas grandes.","class":"Ataque Pesado"}}
{"id":7,"mac_drone":99990007,"name":"Silencioso","height_cm":97,"weight_g":4.0,"location":{"city":"Recife","country":"Brasil","latitude":-8.0476,"longitude":-34.8770,"precision":10,"refer":"Área de Teste G"},"status":"Hibernação profunda","bpm":28,"mutations_quantity":0,"super_poder":null}
{"id":8,"mac_drone":99990008,"name":"Fulgor","height_cm":105,"weight_g":5.3,"location":{"city":"Fortaleza","country":"Brasil","latitude":-3.7172,"longitude":-38.5431,"precision":10,"refer":"Área de Teste H"},"status":"Desperto","bpm":130,"mutations_quantity":3,"super_poder":{"name":"Raio Laser","description":"Dispara feixe concentrado de energia.","class":"Ataque Rápido"}}
{"id":9,"mac_drone":99990009,"name":"Gélido","height_cm":108,"weight_g":5.5,"location":{"city":"Florianópolis","country":"Brasil","latitude":-27.5954,"longitude":-48.5480,"precision":10,"refer":"Área de Teste I"},"status":"Em transe","bpm":70,"mutations_quantity":2,"super_poder":null}
{"id":10,"mac_drone":99990010,"name":"Titã","height_cm":130,"weight_g":8.0,"location":{"city":"Salvador","country":"Brasil","latitude":-12.9714,"longitude":-38.5014,"precision":10,"refer":"Área de Teste J"},"status":"Desperto","bpm":115,"mutations_quantity":8,"super_poder":{"name":"Invulnerabilidade","description":"Resiste a qualquer impacto físico.","class":"Defesa"}}
